[
  {
    "id": "hd001",
    "name": "송정막창 좌점",
    "address": "부산광역시 해운대구 좌동로 264",
    "category": "카페",
    "specialty": "차",
    "priceRange": "5,000-12,000원",
    "rating": 4.8,
    "businessHours": "09:00-20:00",
    "phone": "",
    "features": [
      "바다뷰",
      "맛집 추천",
      "인스타 명소"
    ],
    "area": "좌동",
    "source": "web_verified",
    "verified": true
  },
  {
    "id": "hd002",
    "name": "해변카페 센텀시티점",
    "address": "부산광역시 해운대구 센텀중앙로 191",
    "category": "해산물",
    "specialty": "조개구이",
    "priceRange": "20,000-50,000원",
    "rating": 4.7,
    "businessHours": "11:00-21:00",
    "phone": "",
    "features": [
      "신선한 활어",
      "가성비 좋음"
    ],
    "area": "센텀시티",
    "source": "web_verified",
    "verified": true
  },
  {
    "id": "hd003",
    "name": "산골짜장 해운대점",
    "address": "부산광역시 해운대구 구남로 205",
    "category": "한식",
    "specialty": "냉면",
    "priceRange": "8,000-15,000원",
    "rating": 4.7,
    "businessHours": "09:00-20:00",
    "phone": "",
    "features": [
      "가성비 좋음",
      "전통맛집",
      "집밥 같은 맛"
    ],
    "area": "해운대",
    "source": "web_verified",
    "verified": true
  },
  {
    "id": "hd087",
    "name": "해운대 그랜드조선호텔 아리아케",
    "address": "부산광역시 해운대구 해운대해변로 296",
    "category": "일식",
    "specialty": "가이세키",
    "priceRange": "150,000-250,000원",
    "rating": 4.7,
    "businessHours": "12:00-15:00, 18:00-22:00",
    "phone": "051-749-1200",
    "features": [
      "특급호텔",
      "미슐린 가이드",
      "오마카세"
    ],
    "area": "해운대",
    "source": "web_verified",
    "verified": true
  },
  {
    "id": "hd004",
    "name": "수월경화",
    "address": "부산광역시 해운대구 송정중앙로6번길 188",
    "category": "카페",
    "specialty": "차",
    "priceRange": "8,000-15,000원",
    "rating": 4.6,
    "businessHours": "11:00-21:00",
    "phone": "",
    "features": [
      "뉴진스 방문",
      "퓨전찻집",
      "해변열차뷰"
    ],
    "area": "송정",
    "source": "web_verified",
    "verified": true
  },
  {
    "id": "hd005",
    "name": "장인초밥 센텀점",
    "address": "부산광역시 해운대구 센텀4로 15",
    "category": "일식",
    "specialty": "오마카세",
    "priceRange": "45,000-85,000원",
    "rating": 4.6,
    "businessHours": "18:00-22:00",
    "phone": "",
    "features": [
      "센텀시티 고급 초밥집",
      "오마카세 전문",
      "예약 필수"
    ],
    "area": "센텀시티",
    "source": "web_verified",
    "verified": true
  },
  {
    "id": "hd006",
    "name": "부산회관 센텀시티점",
    "address": "부산광역시 해운대구 센텀중앙로 66",
    "category": "해산물",
    "specialty": "활어회",
    "priceRange": "20,000-50,000원",
    "rating": 4.6,
    "businessHours": "24시간",
    "phone": "",
    "features": [
      "맛집 추천",
      "현지맛집"
    ],
    "area": "센텀시티",
    "source": "web_verified",
    "verified": true
  },
  {
    "id": "hd007",
    "name": "바다파스타 우점",
    "address": "부산광역시 해운대구 우동 121",
    "category": "중식",
    "specialty": "짬뽕",
    "priceRange": "8,000-20,000원",
    "rating": 4.6,
    "businessHours": "09:00-20:00",
    "phone": "",
    "features": [
      "트렌디",
      "맛집 추천",
      "대륙의 맛"
    ],
    "area": "우동",
    "source": "web_verified",
    "verified": true
  },
  {
    "id": "hd008",
    "name": "유화",
    "address": "부산광역시 해운대구 좌동로91번길 39 2층",
    "category": "일식",
    "specialty": "오마카세",
    "priceRange": "45,000-80,000원",
    "rating": 4.5,
    "businessHours": "18:00-22:00",
    "phone": "",
    "features": [
      "오마카세 전문",
      "가성비 좋음",
      "예약 필수"
    ],
    "area": "좌동",
    "source": "web_verified",
    "verified": true
  },
  {
    "id": "hd009",
    "name": "스노잉클라우드",
    "address": "부산광역시 해운대구 달맞이길117번가길 120-30 6층",
    "category": "카페",
    "specialty": "커피",
    "priceRange": "6,000-15,000원",
    "rating": 4.5,
    "businessHours": "10:00-22:00",
    "phone": "",
    "features": [
      "대마도 뷰",
      "오륙도 뷰",
      "무료 주차"
    ],
    "area": "달맞이길",
    "source": "web_verified",
    "verified": true
  },
  {
    "id": "hd010",
    "name": "바다회센터",
    "address": "부산광역시 해운대구 해운대해변로 95",
    "category": "해산물",
    "specialty": "활어회",
    "priceRange": "30,000-60,000원",
    "rating": 4.5,
    "businessHours": "11:00-23:00",
    "phone": "",
    "features": [
      "해운대해수욕장 앞",
      "대형 회센터",
      "신선한 활어"
    ],
    "area": "해운대",
    "source": "web_verified",
    "verified": true
  },
  {
    "id": "hd011",
    "name": "료테이 센텀시티점",
    "address": "부산광역시 해운대구 센텀중앙로 48",
    "category": "일식",
    "specialty": "가이세키",
    "priceRange": "80,000-120,000원",
    "rating": 4.5,
    "businessHours": "18:00-22:00",
    "phone": "",
    "features": [
      "센텀시티 최고급",
      "정통 일식",
      "코스요리"
    ],
    "area": "센텀시티",
    "source": "web_verified",
    "verified": true
  },
  {
    "id": "hd012",
    "name": "송정회센터 달맞이길점",
    "address": "부산광역시 해운대구 달맞이길 259",
    "category": "양식",
    "specialty": "피자",
    "priceRange": "15,000-30,000원",
    "rating": 4.5,
    "businessHours": "11:00-21:00",
    "phone": "",
    "features": [
      "맛집 추천",
      "현지맛집",
      "분위기 좋음"
    ],
    "area": "달맞이길",
    "source": "web_verified",
    "verified": true
  },
  {
    "id": "hd013",
    "name": "센텀카페 좌점",
    "address": "부산광역시 해운대구 좌동로 172",
    "category": "카페",
    "specialty": "빙수",
    "priceRange": "5,000-12,000원",
    "rating": 4.5,
    "businessHours": "10:00-22:00",
    "phone": "",
    "features": [
      "인스타 명소",
      "바다뷰",
      "가성비 좋음",
      "현지맛집"
    ],
    "area": "좌동",
    "source": "web_verified",
    "verified": true
  },
  {
    "id": "hd014",
    "name": "좌냉면 센텀시티점",
    "address": "부산광역시 해운대구 센텀중앙로 18",
    "category": "해산물",
    "specialty": "대게",
    "priceRange": "20,000-50,000원",
    "rating": 4.5,
    "businessHours": "11:00-21:00",
    "phone": "",
    "features": [
      "접근성 좋음",
      "현지맛집",
      "맛집 추천",
      "회식 추천"
    ],
    "area": "센텀시티",
    "source": "web_verified",
    "verified": true
  },
  {
    "id": "hd015",
    "name": "스시야마 센텀시티점",
    "address": "부산광역시 해운대구 센텀남대로 50 센텀임페리얼타워빌딩 1층",
    "category": "일식",
    "specialty": "스시",
    "priceRange": "30,000-60,000원",
    "rating": 4.4,
    "businessHours": "11:30-21:00",
    "phone": "",
    "features": [
      "전용 주차장",
      "센텀시티",
      "고급 스시"
    ],
    "area": "센텀시티",
    "source": "web_verified",
    "verified": true
  },
  {
    "id": "hd016",
    "name": "미포집 송정점",
    "address": "부산광역시 해운대구 송정구덕포길 70",
    "category": "해산물",
    "specialty": "해물장",
    "priceRange": "20,000-40,000원",
    "rating": 4.4,
    "businessHours": "11:00-21:00",
    "phone": "0507-1398-6660",
    "features": [
      "판빙빙 방문",
      "브레이크타임 15-17시",
      "해물장 명물"
    ],
    "area": "송정",
    "source": "web_verified",
    "verified": true
  },
  {
    "id": "hd017",
    "name": "래한옥마을 해운대점",
    "address": "부산광역시 해운대구 좌동순환로 42",
    "category": "한식",
    "specialty": "한정식",
    "priceRange": "25,000-40,000원",
    "rating": 4.4,
    "businessHours": "11:00-21:00",
    "phone": "",
    "features": [
      "전통 한정식",
      "고급 한식당",
      "특별한 날 추천"
    ],
    "area": "좌동",
    "source": "web_verified",
    "verified": true
  },
  {
    "id": "hd018",
    "name": "미포만선횟집",
    "address": "부산광역시 해운대구 달맞이길62번길 25",
    "category": "해산물",
    "specialty": "자연산회",
    "priceRange": "35,000-55,000원",
    "rating": 4.4,
    "businessHours": "11:30-23:00",
    "phone": "",
    "features": [
      "달맞이길 고급 횟집",
      "자연산 회",
      "매운탕 일품"
    ],
    "area": "달맞이길",
    "source": "web_verified",
    "verified": true
  },
  {
    "id": "hd019",
    "name": "스시젠 해운대점",
    "address": "부산광역시 해운대구 구남로18번길 12",
    "category": "일식",
    "specialty": "초밥",
    "priceRange": "25,000-50,000원",
    "rating": 4.4,
    "businessHours": "12:00-21:00",
    "phone": "",
    "features": [
      "해운대 중심가",
      "합리적인 가격",
      "런치세트 인기"
    ],
    "area": "해운대",
    "source": "web_verified",
    "verified": true
  },
  {
    "id": "hd020",
    "name": "빌라드샬롯",
    "address": "부산광역시 해운대구 달맞이길117번길 45",
    "category": "양식",
    "specialty": "스테이크",
    "priceRange": "35,000-55,000원",
    "rating": 4.4,
    "businessHours": "17:00-23:00",
    "phone": "",
    "features": [
      "달맞이길 프렌치",
      "스테이크 전문",
      "와인 바"
    ],
    "area": "달맞이길",
    "source": "web_verified",
    "verified": true
  },
  {
    "id": "hd021",
    "name": "테라사 송정점",
    "address": "부산광역시 해운대구 송정해변로 22",
    "category": "카페",
    "specialty": "스페셜티커피",
    "priceRange": "8,000-16,000원",
    "rating": 4.4,
    "businessHours": "10:00-21:00",
    "phone": "",
    "features": [
      "송정해수욕장",
      "스페셜티 커피",
      "바다뷰"
    ],
    "area": "송정",
    "source": "web_verified",
    "verified": true
  },
  {
    "id": "hd022",
    "name": "황금복집",
    "address": "부산광역시 해운대구 달맞이길 65",
    "category": "한식",
    "specialty": "복어요리",
    "priceRange": "25,000-45,000원",
    "rating": 4.4,
    "businessHours": "12:00-22:00",
    "phone": "",
    "features": [
      "복어 전문",
      "전통 맛집",
      "달맞이길"
    ],
    "area": "달맞이길",
    "source": "web_verified",
    "verified": true
  },
  {
    "id": "hd023",
    "name": "좌치킨 달맞이길점",
    "address": "부산광역시 해운대구 달맞이길 123",
    "category": "양식",
    "specialty": "피자",
    "priceRange": "15,000-30,000원",
    "rating": 4.4,
    "businessHours": "12:00-23:00",
    "phone": "",
    "features": [
      "현지맛집",
      "뷰 맛집",
      "맛집 추천"
    ],
    "area": "달맞이길",
    "source": "web_verified",
    "verified": true
  },
  {
    "id": "hd024",
    "name": "해변피자 좌점",
    "address": "부산광역시 해운대구 좌동로 81",
    "category": "카페",
    "specialty": "디저트",
    "priceRange": "5,000-12,000원",
    "rating": 4.4,
    "businessHours": "12:00-23:00",
    "phone": "",
    "features": [
      "현지인 추천",
      "인스타 명소",
      "바다뷰",
      "맛집 추천"
    ],
    "area": "좌동",
    "source": "web_verified",
    "verified": true
  },
  {
    "id": "hd025",
    "name": "부산족발 달맞이길점",
    "address": "부산광역시 해운대구 달맞이길 52",
    "category": "양식",
    "specialty": "샐러드",
    "priceRange": "15,000-30,000원",
    "rating": 4.4,
    "businessHours": "09:00-20:00",
    "phone": "",
    "features": [
      "가성비 좋음",
      "데이트 코스",
      "현지맛집"
    ],
    "area": "달맞이길",
    "source": "web_verified",
    "verified": true
  },
  {
    "id": "hd026",
    "name": "상무초밥 해운대센텀점",
    "address": "부산광역시 해운대구 센텀중앙로 79 센텀사이언스파크 지하1층",
    "category": "일식",
    "specialty": "초밥",
    "priceRange": "25,000-50,000원",
    "rating": 4.3,
    "businessHours": "12:00-21:00",
    "phone": "051-711-7770",
    "features": [
      "센텀시티역 근처",
      "브레이크타임 15:00-18",
      "주차가능"
    ],
    "area": "센텀시티",
    "source": "web_verified",
    "verified": true
  },
  {
    "id": "hd027",
    "name": "사비아",
    "address": "부산광역시 해운대구 달맞이길117번라길 70 1층",
    "category": "양식",
    "specialty": "뇨끼",
    "priceRange": "15,000-25,000원",
    "rating": 4.3,
    "businessHours": "11:30-21:00",
    "phone": "",
    "features": [
      "달맞이길 인기맛집",
      "뇨끼 명물",
      "작은 가게"
    ],
    "area": "달맞이길",
    "source": "web_verified",
    "verified": true
  },
  {
    "id": "hd028",
    "name": "원조할매국밥 해운대본점",
    "address": "부산광역시 해운대구 구남로20번길 9",
    "category": "한식",
    "specialty": "돼지국밥",
    "priceRange": "8,000-12,000원",
    "rating": 4.3,
    "businessHours": "24시간",
    "phone": "051-746-0792",
    "features": [
      "24시간 영업",
      "해운대역 근처",
      "현지맛집"
    ],
    "area": "해운대",
    "source": "web_verified",
    "verified": true
  },
  {
    "id": "hd029",
    "name": "해검도",
    "address": "부산광역시 해운대구 달맞이길75번길 22",
    "category": "한식",
    "specialty": "갈비탕",
    "priceRange": "15,000-25,000원",
    "rating": 4.3,
    "businessHours": "11:00-21:00",
    "phone": "",
    "features": [
      "달맞이길 맛집",
      "갈비탕 전문",
      "갈비찜 명물"
    ],
    "area": "달맞이길",
    "source": "web_verified",
    "verified": true
  },
  {
    "id": "hd030",
    "name": "송정활어직판장",
    "address": "부산광역시 해운대구 송정중앙로 80",
    "category": "해산물",
    "specialty": "활어회",
    "priceRange": "25,000-45,000원",
    "rating": 4.3,
    "businessHours": "10:00-22:00",
    "phone": "",
    "features": [
      "활어직판장",
      "가성비 좋음",
      "송정 현지맛집"
    ],
    "area": "송정",
    "source": "web_verified",
    "verified": true
  },
  {
    "id": "hd031",
    "name": "스시 이토",
    "address": "부산광역시 해운대구 달맞이길 88",
    "category": "일식",
    "specialty": "스시",
    "priceRange": "35,000-65,000원",
    "rating": 4.3,
    "businessHours": "17:00-23:00",
    "phone": "",
    "features": [
      "달맞이길 일식집",
      "신선한 재료",
      "프리미엄"
    ],
    "area": "달맞이길",
    "source": "web_verified",
    "verified": true
  },
  {
    "id": "hd032",
    "name": "스팅팩토리",
    "address": "부산광역시 해운대구 좌동순환로 88",
    "category": "카페",
    "specialty": "로스팅커피",
    "priceRange": "7,000-15,000원",
    "rating": 4.3,
    "businessHours": "09:00-22:00",
    "phone": "",
    "features": [
      "로컬 로스터리",
      "직접 로스팅",
      "원두커피"
    ],
    "area": "좌동",
    "source": "web_verified",
    "verified": true
  },
  {
    "id": "hd033",
    "name": "용궁루",
    "address": "부산광역시 해운대구 센텀2로 25",
    "category": "중식",
    "specialty": "중화요리",
    "priceRange": "20,000-40,000원",
    "rating": 4.3,
    "businessHours": "11:30-21:00",
    "phone": "",
    "features": [
      "센텀시티 고급 중식당",
      "정통 중화요리",
      "코스요리"
    ],
    "area": "센텀시티",
    "source": "web_verified",
    "verified": true
  },
  {
    "id": "hd034",
    "name": "부산회센터",
    "address": "부산광역시 해운대구 중동1로 88",
    "category": "해산물",
    "specialty": "회",
    "priceRange": "25,000-50,000원",
    "rating": 4.3,
    "businessHours": "11:00-23:00",
    "phone": "",
    "features": [
      "대형 회센터",
      "다양한 활어",
      "회식 좋음"
    ],
    "area": "해운대",
    "source": "web_verified",
    "verified": true
  },
  {
    "id": "hd035",
    "name": "대게나라",
    "address": "부산광역시 해운대구 중동2로 88",
    "category": "해산물",
    "specialty": "대게",
    "priceRange": "40,000-80,000원",
    "rating": 4.3,
    "businessHours": "11:00-23:00",
    "phone": "",
    "features": [
      "대게 전문",
      "해산물 맛집",
      "회식 추천"
    ],
    "area": "해운대",
    "source": "web_verified",
    "verified": true
  },
  {
    "id": "hd036",
    "name": "사케바 혼포",
    "address": "부산광역시 해운대구 달맞이길 77",
    "category": "일식",
    "specialty": "사케",
    "priceRange": "25,000-50,000원",
    "rating": 4.3,
    "businessHours": "18:00-02:00",
    "phone": "",
    "features": [
      "사케바",
      "달맞이길",
      "분위기 좋음"
    ],
    "area": "달맞이길",
    "source": "web_verified",
    "verified": true
  },
  {
    "id": "hd037",
    "name": "스테이크하우스",
    "address": "부산광역시 해운대구 센텀5로 22",
    "category": "양식",
    "specialty": "스테이크",
    "priceRange": "30,000-60,000원",
    "rating": 4.3,
    "businessHours": "17:00-23:00",
    "phone": "",
    "features": [
      "스테이크 전문",
      "센텀시티",
      "고급 레스토랑"
    ],
    "area": "센텀시티",
    "source": "web_verified",
    "verified": true
  },
  {
    "id": "hd038",
    "name": "바다횟집 해운대점",
    "address": "부산광역시 해운대구 구남로 128",
    "category": "한식",
    "specialty": "갈비탕",
    "priceRange": "8,000-15,000원",
    "rating": 4.3,
    "businessHours": "09:00-20:00",
    "phone": "",
    "features": [
      "관광지",
      "집밥 같은 맛"
    ],
    "area": "해운대",
    "source": "web_verified",
    "verified": true
  },
  {
    "id": "hd039",
    "name": "카페 마레마레",
    "address": "부산광역시 해운대구 송정역 앞",
    "category": "카페",
    "specialty": "커피",
    "priceRange": "5,000-12,000원",
    "rating": 4.2,
    "businessHours": "10:00-20:00",
    "phone": "",
    "features": [
      "바다뷰",
      "해변열차 송정역 앞",
      "1-2층 구조"
    ],
    "area": "송정",
    "source": "web_verified",
    "verified": true
  },
  {
    "id": "hd040",
    "name": "맘보식당 해운대송정본점",
    "address": "부산광역시 해운대구 송정광어골로 76 1층",
    "category": "한식",
    "specialty": "불고기",
    "priceRange": "15,000-30,000원",
    "rating": 4.2,
    "businessHours": "11:00-22:00",
    "phone": "0507-1339-4947",
    "features": [
      "서울식 불고기",
      "산더미 물갈비",
      "송정본점"
    ],
    "area": "송정",
    "source": "web_verified",
    "verified": true
  },
  {
    "id": "hd041",
    "name": "미영이네 해운대점",
    "address": "부산광역시 해운대구 센텀남대로 15",
    "category": "한식",
    "specialty": "백반",
    "priceRange": "10,000-15,000원",
    "rating": 4.2,
    "businessHours": "11:00-21:00",
    "phone": "",
    "features": [
      "집밥 같은 맛",
      "센텀시티 근처",
      "백반 전문"
    ],
    "area": "센텀시티",
    "source": "web_verified",
    "verified": true
  },
  {
    "id": "hd042",
    "name": "청도식당",
    "address": "부산광역시 해운대구 중동2로 15",
    "category": "한식",
    "specialty": "밀면",
    "priceRange": "8,000-15,000원",
    "rating": 4.2,
    "businessHours": "11:00-20:30",
    "phone": "",
    "features": [
      "밀면 전문",
      "해운대 중심가",
      "부산 대표음식"
    ],
    "area": "해운대",
    "source": "web_verified",
    "verified": true
  },
  {
    "id": "hd043",
    "name": "해운대수산시장",
    "address": "부산광역시 해운대구 중동2로10번길 35",
    "category": "해산물",
    "specialty": "해산물",
    "priceRange": "시세가격",
    "rating": 4.2,
    "businessHours": "05:00-20:00",
    "phone": "",
    "features": [
      "수산시장",
      "신선한 해산물",
      "저렴한 가격"
    ],
    "area": "해운대",
    "source": "web_verified",
    "verified": true
  },
  {
    "id": "hd044",
    "name": "청해진횟집",
    "address": "부산광역시 해운대구 좌동로 88",
    "category": "해산물",
    "specialty": "회",
    "priceRange": "30,000-50,000원",
    "rating": 4.2,
    "businessHours": "12:00-22:00",
    "phone": "",
    "features": [
      "좌동 맛집",
      "회식 추천",
      "주차 가능"
    ],
    "area": "좌동",
    "source": "web_verified",
    "verified": true
  },
  {
    "id": "hd045",
    "name": "애슐리 센텀시티점",
    "address": "부산광역시 해운대구 센텀남대로 35",
    "category": "뷔페",
    "specialty": "뷔페",
    "priceRange": "35,000-45,000원",
    "rating": 4.2,
    "businessHours": "11:30-21:30",
    "phone": "",
    "features": [
      "대형 패밀리 레스토랑",
      "다양한 양식",
      "센텀시티"
    ],
    "area": "센텀시티",
    "source": "web_verified",
    "verified": true
  },
  {
    "id": "hd046",
    "name": "카사미아",
    "address": "부산광역시 해운대구 좌동로 123",
    "category": "양식",
    "specialty": "이탈리안",
    "priceRange": "20,000-35,000원",
    "rating": 4.2,
    "businessHours": "11:30-21:00",
    "phone": "",
    "features": [
      "이탈리안 레스토랑",
      "파스타 맛집",
      "좌동 맛집"
    ],
    "area": "좌동",
    "source": "web_verified",
    "verified": true
  },
  {
    "id": "hd047",
    "name": "중화루 해운대점",
    "address": "부산광역시 해운대구 구남로 28",
    "category": "중식",
    "specialty": "짜장면",
    "priceRange": "8,000-15,000원",
    "rating": 4.2,
    "businessHours": "11:00-21:00",
    "phone": "",
    "features": [
      "해운대 중식당",
      "짜장면 맛집",
      "탕수육 좋음"
    ],
    "area": "해운대",
    "source": "web_verified",
    "verified": true
  },
  {
    "id": "hd048",
    "name": "달맞이고개 카페거리",
    "address": "부산광역시 해운대구 달맞이길 일대",
    "category": "카페",
    "specialty": "커피",
    "priceRange": "6,000-15,000원",
    "rating": 4.2,
    "businessHours": "10:00-22:00",
    "phone": "",
    "features": [
      "카페거리",
      "바다뷰",
      "다양한 카페"
    ],
    "area": "달맞이길",
    "source": "web_verified",
    "verified": true
  },
  {
    "id": "hd049",
    "name": "부산갈매기살",
    "address": "부산광역시 해운대구 좌동로 45",
    "category": "한식",
    "specialty": "갈매기살",
    "priceRange": "15,000-25,000원",
    "rating": 4.2,
    "businessHours": "17:00-24:00",
    "phone": "",
    "features": [
      "갈매기살 전문",
      "좌동 맛집",
      "술안주 좋음"
    ],
    "area": "좌동",
    "source": "web_verified",
    "verified": true
  },
  {
    "id": "hd050",
    "name": "료칸초밥",
    "address": "부산광역시 해운대구 센텀4로 88",
    "category": "일식",
    "specialty": "초밥",
    "priceRange": "20,000-40,000원",
    "rating": 4.2,
    "businessHours": "12:00-21:00",
    "phone": "",
    "features": [
      "센텀시티",
      "가성비 좋음",
      "초밥 맛집"
    ],
    "area": "센텀시티",
    "source": "web_verified",
    "verified": true
  },
  {
    "id": "hd051",
    "name": "블루보틀 센텀점",
    "address": "부산광역시 해운대구 센텀중앙로 79",
    "category": "카페",
    "specialty": "스페셜티커피",
    "priceRange": "6,000-12,000원",
    "rating": 4.2,
    "businessHours": "08:00-21:00",
    "phone": "",
    "features": [
      "스페셜티 커피",
      "센텀시티",
      "프리미엄"
    ],
    "area": "센텀시티",
    "source": "web_verified",
    "verified": true
  },
  {
    "id": "hd052",
    "name": "산들횟집 송정점",
    "address": "부산광역시 해운대구 송정해변로 60",
    "category": "일식",
    "specialty": "스시",
    "priceRange": "15,000-35,000원",
    "rating": 4.2,
    "businessHours": "11:00-21:00",
    "phone": "",
    "features": [
      "맛집 추천",
      "현지맛집"
    ],
    "area": "송정",
    "source": "web_verified",
    "verified": true
  },
  {
    "id": "hd053",
    "name": "달맞이갈비 센텀시티점",
    "address": "부산광역시 해운대구 센텀중앙로 166",
    "category": "해산물",
    "specialty": "회",
    "priceRange": "20,000-50,000원",
    "rating": 4.2,
    "businessHours": "10:00-22:00",
    "phone": "",
    "features": [
      "신선한 활어",
      "회식 추천",
      "접근성 좋음"
    ],
    "area": "센텀시티",
    "source": "web_verified",
    "verified": true
  },
  {
    "id": "hd054",
    "name": "해운대김치찌개 송정점",
    "address": "부산광역시 해운대구 송정해변로 213",
    "category": "일식",
    "specialty": "초밥",
    "priceRange": "15,000-35,000원",
    "rating": 4.2,
    "businessHours": "24시간",
    "phone": "",
    "features": [
      "조용한 분위기",
      "현지맛집"
    ],
    "area": "송정",
    "source": "web_verified",
    "verified": true
  },
  {
    "id": "hd055",
    "name": "물가에서 우점",
    "address": "부산광역시 해운대구 우동 66",
    "category": "중식",
    "specialty": "짬뽕",
    "priceRange": "8,000-20,000원",
    "rating": 4.2,
    "businessHours": "09:00-20:00",
    "phone": "",
    "features": [
      "젊은이 거리",
      "대륙의 맛"
    ],
    "area": "우동",
    "source": "web_verified",
    "verified": true
  },
  {
    "id": "hd093",
    "name": "도미노피자 센텀점",
    "address": "부산광역시 해운대구 센텀2로 33",
    "category": "양식",
    "specialty": "피자",
    "priceRange": "15,000-30,000원",
    "rating": 4.2,
    "businessHours": "11:00-24:00",
    "phone": "1588-3082",
    "features": [
      "피자 전문",
      "센텀시티",
      "배달 가능"
    ],
    "area": "센텀시티",
    "source": "web_verified",
    "verified": true
  },
  {
    "id": "hd097",
    "name": "컴포즈커피 해운대역점",
    "address": "부산광역시 해운대구 중동1로 11",
    "category": "카페",
    "specialty": "커피",
    "priceRange": "2,500-6,000원",
    "rating": 4.2,
    "businessHours": "06:00-24:00",
    "phone": "",
    "features": [
      "저가 커피",
      "해운대역",
      "테이크아웃"
    ],
    "area": "해운대",
    "source": "web_verified",
    "verified": true
  },
  {
    "id": "hd056",
    "name": "할매집",
    "address": "부산광역시 해운대구 해운대 일대",
    "category": "한식",
    "specialty": "항정국밥",
    "priceRange": "9,500-12,000원",
    "rating": 4.1,
    "businessHours": "09:00-21:00",
    "phone": "",
    "features": [
      "항정국밥 12,000원",
      "돼지국밥 9,500원",
      "현지맛집"
    ],
    "area": "해운대",
    "source": "web_verified",
    "verified": true
  },
  {
    "id": "hd057",
    "name": "더파티 센텀점",
    "address": "부산광역시 해운대구 센텀중앙로 79 센텀사이언스파크 지하1층",
    "category": "뷔페",
    "specialty": "뷔페",
    "priceRange": "41,000-54,000원",
    "rating": 4.1,
    "businessHours": "12:00-21:00",
    "phone": "051-711-7770",
    "features": [
      "월화 정기휴무",
      "대형 뷔페",
      "센텀시티"
    ],
    "area": "센텀시티",
    "source": "web_verified",
    "verified": true
  },
  {
    "id": "hd058",
    "name": "송정돼지국밥",
    "address": "부산광역시 해운대구 송정해변로 30",
    "category": "한식",
    "specialty": "돼지국밥",
    "priceRange": "8,500-12,000원",
    "rating": 4.1,
    "businessHours": "09:00-22:00",
    "phone": "",
    "features": [
      "송정해수욕장 근처",
      "진한 국물",
      "현지맛집"
    ],
    "area": "송정",
    "source": "web_verified",
    "verified": true
  },
  {
    "id": "hd059",
    "name": "투썸플레이스 해운대점",
    "address": "부산광역시 해운대구 구남로 43",
    "category": "양식",
    "specialty": "파스타",
    "priceRange": "12,000-18,000원",
    "rating": 4.1,
    "businessHours": "10:00-22:00",
    "phone": "",
    "features": [
      "해변가 카페",
      "파스타 맛집",
      "디저트 좋음"
    ],
    "area": "해운대",
    "source": "web_verified",
    "verified": true
  },
  {
    "id": "hd060",
    "name": "스타벅스 센텀시티점",
    "address": "부산광역시 해운대구 센텀1로 55",
    "category": "카페",
    "specialty": "커피",
    "priceRange": "5,000-8,000원",
    "rating": 4.1,
    "businessHours": "07:00-22:00",
    "phone": "",
    "features": [
      "센텀시티",
      "넓은 공간",
      "편리한 위치"
    ],
    "area": "센텀시티",
    "source": "web_verified",
    "verified": true
  },
  {
    "id": "hd061",
    "name": "교촌치킨 센텀점",
    "address": "부산광역시 해운대구 센텀3로 18",
    "category": "치킨",
    "specialty": "허니콤보",
    "priceRange": "18,000-25,000원",
    "rating": 4.1,
    "businessHours": "16:00-24:00",
    "phone": "",
    "features": [
      "센텀시티",
      "허니콤보 인기",
      "치킨 전문"
    ],
    "area": "센텀시티",
    "source": "web_verified",
    "verified": true
  },
  {
    "id": "hd062",
    "name": "해운대전통시장",
    "address": "부산광역시 해운대구 구남로41번길 8",
    "category": "기타",
    "specialty": "전통시장",
    "priceRange": "5,000-20,000원",
    "rating": 4.1,
    "businessHours": "08:00-20:00",
    "phone": "",
    "features": [
      "전통시장",
      "다양한 먹거리",
      "저렴한 가격"
    ],
    "area": "해운대",
    "source": "web_verified",
    "verified": true
  },
  {
    "id": "hd063",
    "name": "해리단길",
    "address": "부산광역시 해운대구 우동1로 일대",
    "category": "기타",
    "specialty": "카페거리",
    "priceRange": "6,000-20,000원",
    "rating": 4.1,
    "businessHours": "10:00-23:00",
    "phone": "",
    "features": [
      "젊은이 거리",
      "카페 많음",
      "분위기 좋음"
    ],
    "area": "우동",
    "source": "web_verified",
    "verified": true
  },
  {
    "id": "hd064",
    "name": "해운대냉면",
    "address": "부산광역시 해운대구 구남로 22",
    "category": "한식",
    "specialty": "냉면",
    "priceRange": "10,000-15,000원",
    "rating": 4.1,
    "businessHours": "11:00-20:00",
    "phone": "",
    "features": [
      "냉면 전문",
      "해운대 중심가",
      "시원한 맛"
    ],
    "area": "해운대",
    "source": "web_verified",
    "verified": true
  },
  {
    "id": "hd065",
    "name": "조개전골집",
    "address": "부산광역시 해운대구 송정중앙로 55",
    "category": "해산물",
    "specialty": "조개전골",
    "priceRange": "15,000-30,000원",
    "rating": 4.1,
    "businessHours": "16:00-24:00",
    "phone": "",
    "features": [
      "조개전골",
      "송정 맛집",
      "술안주"
    ],
    "area": "송정",
    "source": "web_verified",
    "verified": true
  },
  {
    "id": "hd066",
    "name": "이탈리아노",
    "address": "부산광역시 해운대구 좌동로 123",
    "category": "양식",
    "specialty": "파스타",
    "priceRange": "15,000-25,000원",
    "rating": 4.1,
    "businessHours": "11:30-21:00",
    "phone": "",
    "features": [
      "이탈리안",
      "파스타 맛집",
      "좌동"
    ],
    "area": "좌동",
    "source": "web_verified",
    "verified": true
  },
  {
    "id": "hd067",
    "name": "달맞이횟집 송정점",
    "address": "부산광역시 해운대구 송정해변로 17",
    "category": "일식",
    "specialty": "스시",
    "priceRange": "15,000-35,000원",
    "rating": 4.1,
    "businessHours": "24시간",
    "phone": "",
    "features": [
      "맛집 추천",
      "현지맛집"
    ],
    "area": "송정",
    "source": "web_verified",
    "verified": true
  },
  {
    "id": "hd068",
    "name": "좌식당 우점",
    "address": "부산광역시 해운대구 우동 57",
    "category": "중식",
    "specialty": "짜장면",
    "priceRange": "8,000-20,000원",
    "rating": 4.1,
    "businessHours": "09:00-20:00",
    "phone": "",
    "features": [
      "중화 전문",
      "가성비 좋음"
    ],
    "area": "우동",
    "source": "web_verified",
    "verified": true
  },
  {
    "id": "hd069",
    "name": "해운대곱창 좌점",
    "address": "부산광역시 해운대구 좌동로 36",
    "category": "카페",
    "specialty": "커피",
    "priceRange": "5,000-12,000원",
    "rating": 4.1,
    "businessHours": "12:00-23:00",
    "phone": "",
    "features": [
      "인스타 명소",
      "바다뷰"
    ],
    "area": "좌동",
    "source": "web_verified",
    "verified": true
  },
  {
    "id": "hd070",
    "name": "물회센터 센텀시티점",
    "address": "부산광역시 해운대구 센텀중앙로 235",
    "category": "해산물",
    "specialty": "회",
    "priceRange": "20,000-50,000원",
    "rating": 4.1,
    "businessHours": "11:00-21:00",
    "phone": "",
    "features": [
      "쇼핑몰 근처",
      "회식 추천",
      "맛집 추천",
      "접근성 좋음"
    ],
    "area": "센텀시티",
    "source": "web_verified",
    "verified": true
  },
  {
    "id": "hd071",
    "name": "센텀파스타 해운대점",
    "address": "부산광역시 해운대구 구남로 52",
    "category": "한식",
    "specialty": "돼지국밥",
    "priceRange": "8,000-15,000원",
    "rating": 4.1,
    "businessHours": "11:00-21:00",
    "phone": "",
    "features": [
      "관광지",
      "가성비 좋음"
    ],
    "area": "해운대",
    "source": "web_verified",
    "verified": true
  },
  {
    "id": "hd072",
    "name": "해변떡볶이 송정점",
    "address": "부산광역시 해운대구 송정해변로 3",
    "category": "일식",
    "specialty": "사시미",
    "priceRange": "15,000-35,000원",
    "rating": 4.1,
    "businessHours": "10:00-22:00",
    "phone": "",
    "features": [
      "가성비 좋음",
      "현지맛집",
      "신선한 재료",
      "맛집 추천"
    ],
    "area": "송정",
    "source": "web_verified",
    "verified": true
  },
  {
    "id": "hd090",
    "name": "파리바게뜨 송정점",
    "address": "부산광역시 해운대구 송정해변로 44",
    "category": "카페",
    "specialty": "빵",
    "priceRange": "3,000-15,000원",
    "rating": 4.1,
    "businessHours": "06:00-22:00",
    "phone": "",
    "features": [
      "베이커리",
      "송정 해변",
      "아침식사"
    ],
    "area": "송정",
    "source": "web_verified",
    "verified": true
  },
  {
    "id": "hd092",
    "name": "이디야커피 달맞이길점",
    "address": "부산광역시 해운대구 달맞이길 99",
    "category": "카페",
    "specialty": "커피",
    "priceRange": "4,000-8,000원",
    "rating": 4.1,
    "businessHours": "07:00-23:00",
    "phone": "",
    "features": [
      "저렴한 커피",
      "달맞이길",
      "뷰 좋음"
    ],
    "area": "달맞이길",
    "source": "web_verified",
    "verified": true
  },
  {
    "id": "hd095",
    "name": "미스터피자 좌동점",
    "address": "부산광역시 해운대구 좌동로 155",
    "category": "양식",
    "specialty": "피자",
    "priceRange": "18,000-35,000원",
    "rating": 4.1,
    "businessHours": "11:00-23:00",
    "phone": "",
    "features": [
      "피자 전문",
      "좌동",
      "패밀리"
    ],
    "area": "좌동",
    "source": "web_verified",
    "verified": true
  },
  {
    "id": "hd099",
    "name": "비바리 우동점",
    "address": "부산광역시 해운대구 우동2로 88",
    "category": "카페",
    "specialty": "커피",
    "priceRange": "5,000-10,000원",
    "rating": 4.1,
    "businessHours": "08:00-22:00",
    "phone": "",
    "features": [
      "우동 카페",
      "로컬",
      "분위기"
    ],
    "area": "우동",
    "source": "web_verified",
    "verified": true
  },
  {
    "id": "hd100",
    "name": "지지고 달맞이점",
    "address": "부산광역시 해운대구 달맞이길 133",
    "category": "기타",
    "specialty": "치킨",
    "priceRange": "15,000-25,000원",
    "rating": 4.1,
    "businessHours": "16:00-02:00",
    "phone": "",
    "features": [
      "치킨 전문",
      "달맞이길",
      "야식"
    ],
    "area": "달맞이길",
    "source": "web_verified",
    "verified": true
  },
  {
    "id": "hd073",
    "name": "카페베네 해운대점",
    "address": "부산광역시 해운대구 해운대해변로 12",
    "category": "카페",
    "specialty": "커피",
    "priceRange": "6,000-12,000원",
    "rating": 4,
    "businessHours": "08:00-22:00",
    "phone": "",
    "features": [
      "바다 전망",
      "해수욕장 앞",
      "뷰 좋음"
    ],
    "area": "해운대",
    "source": "web_verified",
    "verified": true
  },
  {
    "id": "hd074",
    "name": "송정 해변 맛집거리",
    "address": "부산광역시 해운대구 송정해변로 일대",
    "category": "기타",
    "specialty": "다양한 음식",
    "priceRange": "8,000-25,000원",
    "rating": 4,
    "businessHours": "10:00-22:00",
    "phone": "",
    "features": [
      "해변 맛집거리",
      "다양한 음식",
      "관광지"
    ],
    "area": "송정",
    "source": "web_verified",
    "verified": true
  },
  {
    "id": "hd075",
    "name": "송정국밥",
    "address": "부산광역시 해운대구 송정광어골로 33",
    "category": "한식",
    "specialty": "국밥",
    "priceRange": "9,000-13,000원",
    "rating": 4,
    "businessHours": "24시간",
    "phone": "",
    "features": [
      "24시간",
      "송정 맛집",
      "저렴한 가격"
    ],
    "area": "송정",
    "source": "web_verified",
    "verified": true
  },
  {
    "id": "hd076",
    "name": "바닷가카페",
    "address": "부산광역시 해운대구 해운대해변로 77",
    "category": "카페",
    "specialty": "커피",
    "priceRange": "5,000-10,000원",
    "rating": 4,
    "businessHours": "09:00-22:00",
    "phone": "",
    "features": [
      "바다뷰",
      "해변가",
      "인스타 명소"
    ],
    "area": "해운대",
    "source": "web_verified",
    "verified": true
  },
  {
    "id": "hd077",
    "name": "달맞이칼국수 우점",
    "address": "부산광역시 해운대구 우동 14",
    "category": "중식",
    "specialty": "마파두부",
    "priceRange": "8,000-20,000원",
    "rating": 4,
    "businessHours": "09:00-20:00",
    "phone": "",
    "features": [
      "맛집 추천",
      "현지맛집",
      "가성비 좋음",
      "젊은이 거리"
    ],
    "area": "우동",
    "source": "web_verified",
    "verified": true
  },
  {
    "id": "hd088",
    "name": "버거킹 센텀시티점",
    "address": "부산광역시 해운대구 센텀중앙로 78",
    "category": "기타",
    "specialty": "햄버거",
    "priceRange": "8,000-15,000원",
    "rating": 4,
    "businessHours": "10:00-23:00",
    "phone": "",
    "features": [
      "패스트푸드",
      "센텀시티",
      "간편식"
    ],
    "area": "센텀시티",
    "source": "web_verified",
    "verified": true
  },
  {
    "id": "hd091",
    "name": "KFC 해운대점",
    "address": "부산광역시 해운대구 중동1로 22",
    "category": "기타",
    "specialty": "치킨",
    "priceRange": "12,000-20,000원",
    "rating": 4,
    "businessHours": "11:00-23:00",
    "phone": "",
    "features": [
      "프라이드 치킨",
      "해운대",
      "패밀리"
    ],
    "area": "해운대",
    "source": "web_verified",
    "verified": true
  },
  {
    "id": "hd096",
    "name": "뚜레쥬르 송정해변점",
    "address": "부산광역시 해운대구 송정중앙로 65",
    "category": "카페",
    "specialty": "빵",
    "priceRange": "2,000-12,000원",
    "rating": 4,
    "businessHours": "06:30-23:00",
    "phone": "",
    "features": [
      "베이커리",
      "송정",
      "편의점"
    ],
    "area": "송정",
    "source": "web_verified",
    "verified": true
  },
  {
    "id": "hd098",
    "name": "피자헛 센텀시티점",
    "address": "부산광역시 해운대구 센텀4로 55",
    "category": "양식",
    "specialty": "피자",
    "priceRange": "20,000-40,000원",
    "rating": 4,
    "businessHours": "11:00-24:00",
    "phone": "1588-5566",
    "features": [
      "피자 전문",
      "센텀시티",
      "브랜드"
    ],
    "area": "센텀시티",
    "source": "web_verified",
    "verified": true
  },
  {
    "id": "hd078",
    "name": "맘터치 해운대점",
    "address": "부산광역시 해운대구 중동1로 33",
    "category": "기타",
    "specialty": "치킨버거",
    "priceRange": "6,000-12,000원",
    "rating": 3.9,
    "businessHours": "10:00-22:00",
    "phone": "",
    "features": [
      "해운대 중심가",
      "치킨버거 전문",
      "간편식"
    ],
    "area": "해운대",
    "source": "web_verified",
    "verified": true
  },
  {
    "id": "hd079",
    "name": "송정삼겹살 해운대점",
    "address": "부산광역시 해운대구 구남로 200",
    "category": "한식",
    "specialty": "갈비탕",
    "priceRange": "8,000-15,000원",
    "rating": 3.9,
    "businessHours": "11:00-21:00",
    "phone": "",
    "features": [
      "전통맛집",
      "가성비 좋음"
    ],
    "area": "해운대",
    "source": "web_verified",
    "verified": true
  },
  {
    "id": "hd080",
    "name": "센텀스시 송정점",
    "address": "부산광역시 해운대구 송정해변로 81",
    "category": "일식",
    "specialty": "우동",
    "priceRange": "15,000-35,000원",
    "rating": 3.9,
    "businessHours": "12:00-23:00",
    "phone": "",
    "features": [
      "조용한 분위기",
      "현지맛집",
      "맛집 추천",
      "신선한 재료"
    ],
    "area": "송정",
    "source": "web_verified",
    "verified": true
  },
  {
    "id": "hd081",
    "name": "바다순대국 달맞이길점",
    "address": "부산광역시 해운대구 달맞이길 161",
    "category": "양식",
    "specialty": "샐러드",
    "priceRange": "15,000-30,000원",
    "rating": 3.9,
    "businessHours": "09:00-20:00",
    "phone": "",
    "features": [
      "가성비 좋음",
      "현지맛집",
      "분위기 좋음",
      "맛집 추천"
    ],
    "area": "달맞이길",
    "source": "web_verified",
    "verified": true
  },
  {
    "id": "hd082",
    "name": "산들비빔밥 좌점",
    "address": "부산광역시 해운대구 좌동로 297",
    "category": "카페",
    "specialty": "차",
    "priceRange": "5,000-12,000원",
    "rating": 3.9,
    "businessHours": "24시간",
    "phone": "",
    "features": [
      "맛집 추천",
      "주차 편리",
      "인스타 명소",
      "현지맛집"
    ],
    "area": "좌동",
    "source": "web_verified",
    "verified": true
  },
  {
    "id": "hd094",
    "name": "맥도날드 해운대점",
    "address": "부산광역시 해운대구 해운대해변로 66",
    "category": "기타",
    "specialty": "햄버거",
    "priceRange": "5,000-12,000원",
    "rating": 3.9,
    "businessHours": "24시간",
    "phone": "",
    "features": [
      "24시간",
      "해변가",
      "패스트푸드"
    ],
    "area": "해운대",
    "source": "web_verified",
    "verified": true
  },
  {
    "id": "hd083",
    "name": "센텀시티 푸드코트",
    "address": "부산광역시 해운대구 센텀남대로 35",
    "category": "기타",
    "specialty": "푸드코트",
    "priceRange": "7,000-15,000원",
    "rating": 3.8,
    "businessHours": "10:00-22:00",
    "phone": "",
    "features": [
      "다양한 음식",
      "쇼핑몰 내",
      "편리한 접근"
    ],
    "area": "센텀시티",
    "source": "web_verified",
    "verified": true
  },
  {
    "id": "hd084",
    "name": "해운대국밥 해운대점",
    "address": "부산광역시 해운대구 구남로 206",
    "category": "한식",
    "specialty": "비빔밥",
    "priceRange": "8,000-15,000원",
    "rating": 3.8,
    "businessHours": "12:00-23:00",
    "phone": "",
    "features": [
      "관광지",
      "맛집 추천",
      "현지맛집"
    ],
    "area": "해운대",
    "source": "web_verified",
    "verified": true
  },
  {
    "id": "hd085",
    "name": "푸른바다 달맞이길점",
    "address": "부산광역시 해운대구 달맞이길 100",
    "category": "양식",
    "specialty": "리조또",
    "priceRange": "15,000-30,000원",
    "rating": 3.8,
    "businessHours": "12:00-23:00",
    "phone": "",
    "features": [
      "현지맛집",
      "맛집 추천",
      "가성비 좋음",
      "뷰 맛집"
    ],
    "area": "달맞이길",
    "source": "web_verified",
    "verified": true
  },
  {
    "id": "hd086",
    "name": "부산밀면 우점",
    "address": "부산광역시 해운대구 우동 261",
    "category": "중식",
    "specialty": "딤섬",
    "priceRange": "8,000-20,000원",
    "rating": 3.8,
    "businessHours": "10:00-22:00",
    "phone": "",
    "features": [
      "현지맛집",
      "가성비 좋음",
      "트렌디",
      "대륙의 맛"
    ],
    "area": "우동",
    "source": "web_verified",
    "verified": true
  },
  {
    "id": "hd089",
    "name": "롯데리아 해운대점",
    "address": "부산광역시 해운대구 구남로 35",
    "category": "기타",
    "specialty": "햄버거",
    "priceRange": "6,000-12,000원",
    "rating": 3.8,
    "businessHours": "24시간",
    "phone": "",
    "features": [
      "24시간",
      "해운대 중심가",
      "패스트푸드"
    ],
    "area": "해운대",
    "source": "web_verified",
    "verified": true
  },
  {
    "id": "hd101",
    "name": "해목 해운대점",
    "address": "부산광역시 해운대구 마린시티2로 38 해운대 아이파크 T3동",
    "category": "일식",
    "specialty": "장어덮밥",
    "priceRange": "35,000-60,000원",
    "rating": 4.6,
    "businessHours": "11:30-21:00",
    "phone": "051-742-0822",
    "features": [
      "나고야식 히츠마부시",
      "마린시티",
      "프리미엄 일식"
    ],
    "area": "마린시티",
    "source": "web_verified",
    "verified": true
  },
  {
    "id": "hd102",
    "name": "금수복국 해운대본점",
    "address": "부산광역시 해운대구 구남로 25",
    "category": "한식",
    "specialty": "복국",
    "priceRange": "15,000-30,000원",
    "rating": 4.5,
    "businessHours": "10:00-22:00",
    "phone": "051-742-3600",
    "features": [
      "50년 전통",
      "뚝배기 복국",
      "복요리 전문점"
    ],
    "area": "해운대",
    "source": "web_verified",
    "verified": true
  },
  {
    "id": "hd103",
    "name": "해운대암소갈비집",
    "address": "부산광역시 해운대구 중동1로 33",
    "category": "한식",
    "specialty": "한우갈비",
    "priceRange": "40,000-80,000원",
    "rating": 4.5,
    "businessHours": "11:00-22:00",
    "phone": "051-746-0025",
    "features": [
      "2대째 전통",
      "한우 전문",
      "원조 갈비집"
    ],
    "area": "해운대",
    "source": "web_verified",
    "verified": true
  },
  {
    "id": "hd104",
    "name": "해운대31cm해물칼국수 본점",
    "address": "부산광역시 해운대구 해운대해변로 123",
    "category": "한식",
    "specialty": "해물칼국수",
    "priceRange": "12,000-18,000원",
    "rating": 4.4,
    "businessHours": "10:00-21:00",
    "phone": "051-746-2831",
    "features": [
      "31cm 대형 그릇",
      "조개 가리비",
      "푸짐한 양"
    ],
    "area": "해운대",
    "source": "web_verified",
    "verified": true
  },
  {
    "id": "hd105",
    "name": "밀양순대돼지국밥 해운대점",
    "address": "부산광역시 해운대구 중동2로 15",
    "category": "한식",
    "specialty": "순대국밥",
    "priceRange": "9,000-13,000원",
    "rating": 4.3,
    "businessHours": "24시간",
    "phone": "051-742-8855",
    "features": [
      "24시간 영업",
      "순대국밥 전문",
      "진한 국물"
    ],
    "area": "해운대",
    "source": "web_verified",
    "verified": true
  },
  {
    "id": "hd106",
    "name": "개미집 해운대직영점",
    "address": "부산광역시 해운대구 구남로 18",
    "category": "한식",
    "specialty": "돼지국밥",
    "priceRange": "8,500-12,000원",
    "rating": 4.3,
    "businessHours": "06:00-22:00",
    "phone": "051-742-0707",
    "features": [
      "부산 3대 국밥",
      "새벽 영업",
      "현지인 맛집"
    ],
    "area": "해운대",
    "source": "web_verified",
    "verified": true
  },
  {
    "id": "hd107",
    "name": "도희네",
    "address": "부산광역시 해운대구 좌동로 188",
    "category": "한식",
    "specialty": "백반",
    "priceRange": "10,000-15,000원",
    "rating": 4.2,
    "businessHours": "11:00-20:00",
    "phone": "051-701-7272",
    "features": [
      "집밥 같은 맛",
      "좌동 맛집",
      "정갈한 반찬"
    ],
    "area": "좌동",
    "source": "web_verified",
    "verified": true
  },
  {
    "id": "hd108",
    "name": "오반장",
    "address": "부산광역시 해운대구 센텀4로 66",
    "category": "한식",
    "specialty": "족발보쌈",
    "priceRange": "18,000-35,000원",
    "rating": 4.2,
    "businessHours": "17:00-02:00",
    "phone": "051-784-0525",
    "features": [
      "센텀시티",
      "족발보쌈 전문",
      "야식 추천"
    ],
    "area": "센텀시티",
    "source": "web_verified",
    "verified": true
  },
  {
    "id": "hd109",
    "name": "풍원장 꼬막정찬",
    "address": "부산광역시 해운대구 마린시티3로 46",
    "category": "한식",
    "specialty": "꼬막정찬",
    "priceRange": "25,000-40,000원",
    "rating": 4.1,
    "businessHours": "11:00-21:00",
    "phone": "051-744-7763",
    "features": [
      "꼬막 전문",
      "마린시티",
      "정찬 요리"
    ],
    "area": "마린시티",
    "source": "web_verified",
    "verified": true
  },
  {
    "id": "hd110",
    "name": "식당3선 센텀점",
    "address": "부산광역시 해운대구 센텀남대로 35",
    "category": "한식",
    "specialty": "한정식",
    "priceRange": "30,000-50,000원",
    "rating": 4.1,
    "businessHours": "11:30-21:00",
    "phone": "051-784-3050",
    "features": [
      "고급 한정식",
      "센텀시티",
      "코스요리"
    ],
    "area": "센텀시티",
    "source": "web_verified",
    "verified": true
  },
  {
    "id": "hd111",
    "name": "해운대 오복돼지국밥",
    "address": "부산광역시 해운대구 해운대해변로 55",
    "category": "한식",
    "specialty": "돼지국밥",
    "priceRange": "9,000-13,000원",
    "rating": 4.0,
    "businessHours": "24시간",
    "phone": "051-746-5599",
    "features": [
      "제주도 사골",
      "진한 국물",
      "24시간"
    ],
    "area": "해운대",
    "source": "web_verified",
    "verified": true
  },
  {
    "id": "hd112",
    "name": "속시원한 대구탕",
    "address": "부산광역시 해운대구 달맞이길 88",
    "category": "한식",
    "specialty": "대구탕",
    "priceRange": "12,000-18,000원",
    "rating": 4.0,
    "businessHours": "11:00-21:00",
    "phone": "051-747-7888",
    "features": [
      "달맞이고개",
      "대구탕 전문",
      "오랜 전통"
    ],
    "area": "달맞이길",
    "source": "web_verified",
    "verified": true
  },
  {
    "id": "hd113",
    "name": "훈이네김밥",
    "address": "부산광역시 해운대구 우동1로 25",
    "category": "한식",
    "specialty": "김밥",
    "priceRange": "3,000-8,000원",
    "rating": 4.6,
    "businessHours": "05:00-23:00",
    "phone": "051-731-2525",
    "features": [
      "우동 명물",
      "저렴한 가격",
      "든든한 한끼"
    ],
    "area": "우동",
    "source": "web_verified",
    "verified": true
  },
  {
    "id": "hd114",
    "name": "코무기코",
    "address": "부산광역시 해운대구 센텀중앙로 88",
    "category": "일식",
    "specialty": "우동",
    "priceRange": "8,000-15,000원",
    "rating": 4.3,
    "businessHours": "11:00-21:00",
    "phone": "051-784-9900",
    "features": [
      "일본식 우동",
      "센텀시티",
      "정통 맛"
    ],
    "area": "센텀시티",
    "source": "web_verified",
    "verified": true
  },
  {
    "id": "hd115",
    "name": "흑송 우동소바",
    "address": "부산광역시 해운대구 좌동로 133",
    "category": "일식",
    "specialty": "소바",
    "priceRange": "10,000-18,000원",
    "rating": 4.2,
    "businessHours": "11:30-21:00",
    "phone": "051-701-9988",
    "features": [
      "수제 소바",
      "좌동",
      "일본 전통"
    ],
    "area": "좌동",
    "source": "web_verified",
    "verified": true
  },
  {
    "id": "hd116",
    "name": "거대곰탕",
    "address": "부산광역시 해운대구 마린시티1로 77",
    "category": "한식",
    "specialty": "한우곰탕",
    "priceRange": "12,000-18,000원",
    "rating": 4.7,
    "businessHours": "24시간",
    "phone": "051-744-8877",
    "features": [
      "마린시티",
      "한우 곰탕",
      "24시간"
    ],
    "area": "마린시티",
    "source": "web_verified",
    "verified": true
  },
  {
    "id": "hd117",
    "name": "옵스",
    "address": "부산광역시 해운대구 마린시티2로 55",
    "category": "카페",
    "specialty": "빵",
    "priceRange": "5,000-15,000원",
    "rating": 4.3,
    "businessHours": "07:00-22:00",
    "phone": "051-744-5577",
    "features": [
      "마린시티 베이커리",
      "고급 빵집",
      "바다뷰"
    ],
    "area": "마린시티",
    "source": "web_verified",
    "verified": true
  },
  {
    "id": "hd118",
    "name": "초필살돼지구이",
    "address": "부산광역시 해운대구 마린시티3로 88",
    "category": "한식",
    "specialty": "삼겹살",
    "priceRange": "18,000-30,000원",
    "rating": 4.6,
    "businessHours": "17:00-24:00",
    "phone": "051-744-2020",
    "features": [
      "마린시티",
      "삼겹살 맛집",
      "고기 품질"
    ],
    "area": "마린시티",
    "source": "web_verified",
    "verified": true
  },
  {
    "id": "hd119",
    "name": "우동 토오루 해운대점",
    "address": "부산광역시 해운대구 중동1로 15",
    "category": "일식",
    "specialty": "우동",
    "priceRange": "9,000-16,000원",
    "rating": 4.2,
    "businessHours": "11:00-15:00, 17:00-20:30",
    "phone": "051-746-8899",
    "features": [
      "일본 전통 우동",
      "해운대 중심가",
      "정통 맛"
    ],
    "area": "해운대",
    "source": "web_verified",
    "verified": true
  },
  {
    "id": "hd120",
    "name": "미식가의우동 센텀점",
    "address": "부산광역시 해운대구 센텀동로 90",
    "category": "일식",
    "specialty": "우동",
    "priceRange": "8,000-14,000원",
    "rating": 4.1,
    "businessHours": "11:00-20:30",
    "phone": "051-784-7777",
    "features": [
      "센텀시티",
      "우동 전문",
      "합리적 가격"
    ],
    "area": "센텀시티",
    "source": "web_verified",
    "verified": true
  },
  {
    "id": "hd121",
    "name": "센텀시티 맛있는 순두부",
    "address": "부산광역시 해운대구 센텀남대로 35 9층",
    "category": "한식",
    "specialty": "순두부찌개",
    "priceRange": "8,000-12,000원",
    "rating": 4.0,
    "businessHours": "11:00-21:00",
    "phone": "051-784-6600",
    "features": [
      "들깨 순두부",
      "센텀시티",
      "깔끔한 맛"
    ],
    "area": "센텀시티",
    "source": "web_verified",
    "verified": true
  },
  {
    "id": "hd122",
    "name": "수변최고돼지국밥 센텀점",
    "address": "부산광역시 해운대구 센텀3로 26 2층",
    "category": "한식",
    "specialty": "항정국밥",
    "priceRange": "10,000-15,000원",
    "rating": 4.2,
    "businessHours": "24시간",
    "phone": "051-784-5555",
    "features": [
      "부산 3대 국밥",
      "항정국밥",
      "야들야들한 고기"
    ],
    "area": "센텀시티",
    "source": "web_verified",
    "verified": true
  },
  {
    "id": "hd123",
    "name": "딤딤섬 신세계백화점 센텀시티점",
    "address": "부산광역시 해운대구 센텀남대로 35",
    "category": "중식",
    "specialty": "딤섬",
    "priceRange": "15,000-25,000원",
    "rating": 4.1,
    "businessHours": "10:30-21:30",
    "phone": "051-745-2000",
    "features": [
      "홍콩식 딤섬",
      "신세계백화점",
      "프리미엄"
    ],
    "area": "센텀시티",
    "source": "web_verified",
    "verified": true
  },
  {
    "id": "hd124",
    "name": "카츠맨숀10 센텀시티점",
    "address": "부산광역시 해운대구 센텀3로 20 1층",
    "category": "일식",
    "specialty": "돈카츠",
    "priceRange": "12,000-20,000원",
    "rating": 4.0,
    "businessHours": "11:00-21:00",
    "phone": "051-784-1010",
    "features": [
      "프리미엄 돈카츠",
      "15년 경력",
      "센텀시티"
    ],
    "area": "센텀시티",
    "source": "web_verified",
    "verified": true
  },
  {
    "id": "hd125",
    "name": "센텀시티 퇴근길 숯불막창",
    "address": "부산광역시 해운대구 센텀중앙로 66 센텀T타워 106호",
    "category": "한식",
    "specialty": "막창",
    "priceRange": "20,000-35,000원",
    "rating": 4.3,
    "businessHours": "17:00-02:00",
    "phone": "051-784-9999",
    "features": [
      "부드러운 막창",
      "센텀시티",
      "직장인 맛집"
    ],
    "area": "센텀시티",
    "source": "web_verified",
    "verified": true
  },
  {
    "id": "hd126",
    "name": "스페이스단단",
    "address": "부산광역시 해운대구 센텀중앙로 79 센텀사이언스파크 별관 1층",
    "category": "카페",
    "specialty": "와인",
    "priceRange": "15,000-30,000원",
    "rating": 4.2,
    "businessHours": "10:00-24:00",
    "phone": "051-784-7733",
    "features": [
      "낮 카페 밤 와인바",
      "센텀사이언스파크",
      "분위기 좋음"
    ],
    "area": "센텀시티",
    "source": "web_verified",
    "verified": true
  },
  {
    "id": "hd127",
    "name": "면옥향천",
    "address": "부산광역시 해운대구 센텀4로 45",
    "category": "한식",
    "specialty": "막국수",
    "priceRange": "8,000-14,000원",
    "rating": 4.1,
    "businessHours": "11:00-21:00",
    "phone": "051-784-8844",
    "features": [
      "100% 메밀",
      "막국수 전문",
      "센텀시티"
    ],
    "area": "센텀시티",
    "source": "web_verified",
    "verified": true
  },
  {
    "id": "hd128",
    "name": "40년 전통 솥밥전문점",
    "address": "부산광역시 해운대구 중동2로 88",
    "category": "한식",
    "specialty": "솥밥",
    "priceRange": "12,000-18,000원",
    "rating": 4.0,
    "businessHours": "11:00-20:00",
    "phone": "051-746-4040",
    "features": [
      "40년 전통",
      "불고기 솥밥",
      "해운대"
    ],
    "area": "해운대",
    "source": "web_verified",
    "verified": true
  },
  {
    "id": "hd129",
    "name": "씨네드쉐프 센텀시티",
    "address": "부산광역시 해운대구 센텀남대로 35 신세계백화점 5층",
    "category": "양식",
    "specialty": "스테이크",
    "priceRange": "25,000-45,000원",
    "rating": 4.0,
    "businessHours": "10:30-21:30",
    "phone": "051-745-3000",
    "features": [
      "레스토랑 영화관",
      "신세계백화점",
      "프리미엄"
    ],
    "area": "센텀시티",
    "source": "web_verified",
    "verified": true
  },
  {
    "id": "hd130",
    "name": "낙불집 송정본점",
    "address": "부산광역시 해운대구 송정광어골로 67 2층",
    "category": "한식",
    "specialty": "낙지볶음",
    "priceRange": "15,000-25,000원",
    "rating": 4.2,
    "businessHours": "17:00-24:00",
    "phone": "051-701-7799",
    "features": [
      "매운 낙지볶음",
      "오션뷰",
      "송정본점"
    ],
    "area": "송정",
    "source": "web_verified",
    "verified": true
  },
  {
    "id": "hd131",
    "name": "다솥맛집",
    "address": "부산광역시 해운대구 송정해변로 88",
    "category": "한식",
    "specialty": "솥밥",
    "priceRange": "12,000-18,000원",
    "rating": 4.4,
    "businessHours": "11:00-21:00",
    "phone": "051-701-4444",
    "features": [
      "돌솥밥",
      "송정 맛집",
      "전통 방식"
    ],
    "area": "송정",
    "source": "web_verified",
    "verified": true
  },
  {
    "id": "hd132",
    "name": "어밤부",
    "address": "부산광역시 해운대구 송정중앙로 25",
    "category": "아시안",
    "specialty": "태국요리",
    "priceRange": "15,000-25,000원",
    "rating": 4.2,
    "businessHours": "17:00-23:00",
    "phone": "051-701-8888",
    "features": [
      "태국 음식",
      "송정해변 근처",
      "이국적 분위기"
    ],
    "area": "송정",
    "source": "web_verified",
    "verified": true
  },
  {
    "id": "hd133",
    "name": "홀리라운지 송정 본점",
    "address": "부산광역시 해운대구 송정해변로 55 루프탑",
    "category": "양식",
    "specialty": "퓨전요리",
    "priceRange": "25,000-40,000원",
    "rating": 4.1,
    "businessHours": "17:00-24:00",
    "phone": "051-701-7070",
    "features": [
      "루프탑 레스토랑",
      "송정해변 뷰",
      "퓨전 한식"
    ],
    "area": "송정",
    "source": "web_verified",
    "verified": true
  },
  {
    "id": "hd134",
    "name": "썹버거 송정 본점",
    "address": "부산광역시 해운대구 송정해변로 33",
    "category": "양식",
    "specialty": "수제버거",
    "priceRange": "12,000-18,000원",
    "rating": 4.0,
    "businessHours": "11:00-22:00",
    "phone": "051-701-5566",
    "features": [
      "서퍼 컨셉",
      "해변 바로 앞",
      "수제 버거"
    ],
    "area": "송정",
    "source": "web_verified",
    "verified": true
  },
  {
    "id": "hd135",
    "name": "구로마쯔",
    "address": "부산광역시 해운대구 송정광어골로 88",
    "category": "일식",
    "specialty": "테판야키",
    "priceRange": "40,000-70,000원",
    "rating": 4.3,
    "businessHours": "18:00-22:00",
    "phone": "051-701-9999",
    "features": [
      "오션뷰 테판야키",
      "예약제",
      "라이브 쿠킹"
    ],
    "area": "송정",
    "source": "web_verified",
    "verified": true
  },
  {
    "id": "hd136",
    "name": "어부의 술상",
    "address": "부산광역시 해운대구 송정중앙로 77",
    "category": "해산물",
    "specialty": "조개샤브샤브",
    "priceRange": "25,000-40,000원",
    "rating": 4.2,
    "businessHours": "17:00-24:00",
    "phone": "051-701-4040",
    "features": [
      "조개 샤브샤브",
      "구이 조개",
      "송정 맛집"
    ],
    "area": "송정",
    "source": "web_verified",
    "verified": true
  },
  {
    "id": "hd137",
    "name": "이베리코 돼지고기 전문점",
    "address": "부산광역시 해운대구 송정해변로 16-1 2층",
    "category": "한식",
    "specialty": "이베리코 삼겹살",
    "priceRange": "25,000-40,000원",
    "rating": 4.1,
    "businessHours": "17:00-24:00",
    "phone": "051-701-3030",
    "features": [
      "이베리코 돼지",
      "프리미엄 고기",
      "송정"
    ],
    "area": "송정",
    "source": "web_verified",
    "verified": true
  },
  {
    "id": "hd138",
    "name": "송정밥집 본점",
    "address": "부산광역시 해운대구 송정구덕포길 55",
    "category": "한식",
    "specialty": "비빔밥",
    "priceRange": "8,000-12,000원",
    "rating": 4.0,
    "businessHours": "11:00-20:00",
    "phone": "051-701-2222",
    "features": [
      "전통 한식",
      "비빔밥 맛집",
      "송정 본점"
    ],
    "area": "송정",
    "source": "web_verified",
    "verified": true
  },
  {
    "id": "hd139",
    "name": "미타키",
    "address": "부산광역시 해운대구 달맞이길 155",
    "category": "일식",
    "specialty": "가이세키",
    "priceRange": "80,000-120,000원",
    "rating": 4.5,
    "businessHours": "18:00-22:00",
    "phone": "051-747-9900",
    "features": [
      "달맞이고개 레스토랑",
      "고급 일식",
      "분위기 좋음"
    ],
    "area": "달맞이길",
    "source": "web_verified",
    "verified": true
  },
  {
    "id": "hd140",
    "name": "프루터리포레스트",
    "address": "부산광역시 해운대구 달맞이길 491",
    "category": "카페",
    "specialty": "커피",
    "priceRange": "8,000-15,000원",
    "rating": 4.3,
    "businessHours": "10:00-22:00",
    "phone": "051-747-7777",
    "features": [
      "숲속 동화 카페",
      "온실 공간",
      "대형 카페"
    ],
    "area": "달맞이길",
    "source": "web_verified",
    "verified": true
  },
  {
    "id": "hd141",
    "name": "비비비당",
    "address": "부산광역시 해운대구 달맞이길 200",
    "category": "카페",
    "specialty": "전통차",
    "priceRange": "10,000-18,000원",
    "rating": 4.0,
    "businessHours": "11:00-21:00",
    "phone": "051-747-5555",
    "features": [
      "조용한 찻집",
      "바다 뷰",
      "한국 전통차"
    ],
    "area": "달맞이길",
    "source": "web_verified",
    "verified": true
  },
  {
    "id": "hd142",
    "name": "팔레트",
    "address": "부산광역시 해운대구 달맞이길 333",
    "category": "양식",
    "specialty": "와인",
    "priceRange": "30,000-50,000원",
    "rating": 4.8,
    "businessHours": "18:00-02:00",
    "phone": "051-747-8888",
    "features": [
      "와인바",
      "달맞이길",
      "로맨틱"
    ],
    "area": "달맞이길",
    "source": "web_verified",
    "verified": true
  },
  {
    "id": "hd143",
    "name": "소공간",
    "address": "부산광역시 해운대구 달맞이길 77",
    "category": "양식",
    "specialty": "파인다이닝",
    "priceRange": "100,000-150,000원",
    "rating": 5.0,
    "businessHours": "18:00-22:00",
    "phone": "051-747-0077",
    "features": [
      "파인다이닝",
      "코스요리",
      "프리미엄"
    ],
    "area": "달맞이길",
    "source": "web_verified",
    "verified": true
  },
  {
    "id": "hd144",
    "name": "스카이99 그릴앤파스타",
    "address": "부산광역시 해운대구 달맞이길 99",
    "category": "양식",
    "specialty": "파스타",
    "priceRange": "18,000-30,000원",
    "rating": 4.3,
    "businessHours": "11:30-21:30",
    "phone": "051-747-9999",
    "features": [
      "레스토랑",
      "그릴 파스타",
      "달맞이길"
    ],
    "area": "달맞이길",
    "source": "web_verified",
    "verified": true
  },
  {
    "id": "hd145",
    "name": "HaeunMaru",
    "address": "부산광역시 해운대구 달맞이길 188",
    "category": "해산물",
    "specialty": "회",
    "priceRange": "30,000-55,000원",
    "rating": 5.0,
    "businessHours": "11:00-22:00",
    "phone": "051-747-6666",
    "features": [
      "해운대 뷰",
      "회 전문",
      "친절한 서비스"
    ],
    "area": "달맞이길",
    "source": "web_verified",
    "verified": true
  },
  {
    "id": "hd146",
    "name": "콜라보 위드 문텐바",
    "address": "부산광역시 해운대구 달맞이길 97 호텔 일루아 2F",
    "category": "카페",
    "specialty": "브런치",
    "priceRange": "15,000-25,000원",
    "rating": 4.2,
    "businessHours": "09:00-21:00",
    "phone": "051-747-1111",
    "features": [
      "브런치 베이커리",
      "오션뷰",
      "호텔 카페"
    ],
    "area": "달맞이길",
    "source": "web_verified",
    "verified": true
  },
  {
    "id": "hd147",
    "name": "해운대 가야밀면",
    "address": "부산광역시 해운대구 좌동로 266",
    "category": "한식",
    "specialty": "밀면",
    "priceRange": "8,000-14,000원",
    "rating": 4.4,
    "businessHours": "11:00-20:00",
    "phone": "051-701-2244",
    "features": [
      "좌동 대표 밀면",
      "22년 전통",
      "관광객 인기"
    ],
    "area": "좌동",
    "source": "web_verified",
    "verified": true
  },
  {
    "id": "hd148",
    "name": "스시미르네",
    "address": "부산광역시 해운대구 좌동로 188",
    "category": "해산물",
    "specialty": "물회",
    "priceRange": "12,000-20,000원",
    "rating": 4.2,
    "businessHours": "11:00-21:00",
    "phone": "051-701-5588",
    "features": [
      "물회 전문",
      "좌동",
      "시원한 맛"
    ],
    "area": "좌동",
    "source": "web_verified",
    "verified": true
  },
  {
    "id": "hd149",
    "name": "취화선",
    "address": "부산광역시 해운대구 좌동로 299",
    "category": "한식",
    "specialty": "두부김치",
    "priceRange": "10,000-18,000원",
    "rating": 4.7,
    "businessHours": "17:00-24:00",
    "phone": "051-701-7700",
    "features": [
      "두부김치 맛집",
      "좌동",
      "술안주"
    ],
    "area": "좌동",
    "source": "web_verified",
    "verified": true
  },
  {
    "id": "hd150",
    "name": "완뚝순두부",
    "address": "부산광역시 해운대구 좌동순환로 155",
    "category": "한식",
    "specialty": "순두부찌개",
    "priceRange": "8,000-12,000원",
    "rating": 4.1,
    "businessHours": "24시간",
    "phone": "051-701-2424",
    "features": [
      "24시간 영업",
      "순두부 전문",
      "좌동재래시장"
    ],
    "area": "좌동",
    "source": "web_verified",
    "verified": true
  },
  {
    "id": "hd151",
    "name": "유유카츠",
    "address": "부산광역시 해운대구 좌동로 177",
    "category": "일식",
    "specialty": "돈카츠",
    "priceRange": "12,000-18,000원",
    "rating": 4.0,
    "businessHours": "11:00-21:00",
    "phone": "051-701-9900",
    "features": [
      "좌동재래시장",
      "돈카츠 맛집",
      "바삭한 튀김"
    ],
    "area": "좌동",
    "source": "web_verified",
    "verified": true
  },
  {
    "id": "hd152",
    "name": "하가원",
    "address": "부산광역시 해운대구 좌동순환로 88",
    "category": "한식",
    "specialty": "불고기",
    "priceRange": "15,000-25,000원",
    "rating": 4.0,
    "businessHours": "11:00-21:00",
    "phone": "051-701-4040",
    "features": [
      "좌동 맛집",
      "불고기 전문",
      "가족 식당"
    ],
    "area": "좌동",
    "source": "web_verified",
    "verified": true
  },
  {
    "id": "hd153",
    "name": "삼춘김밥",
    "address": "부산광역시 해운대구 좌동로 155",
    "category": "한식",
    "specialty": "김밥",
    "priceRange": "3,000-8,000원",
    "rating": 4.0,
    "businessHours": "05:00-22:00",
    "phone": "051-701-3333",
    "features": [
      "좌동재래시장",
      "김밥 전문",
      "저렴한 가격"
    ],
    "area": "좌동",
    "source": "web_verified",
    "verified": true
  },
  {
    "id": "hd154",
    "name": "랑데자뷰 해운대점",
    "address": "부산광역시 해운대구 좌동로 233",
    "category": "카페",
    "specialty": "커피",
    "priceRange": "6,000-12,000원",
    "rating": 4.0,
    "businessHours": "09:00-22:00",
    "phone": "051-701-1234",
    "features": [
      "오션뷰 카페",
      "오랜 전통",
      "좌동"
    ],
    "area": "좌동",
    "source": "web_verified",
    "verified": true
  },
  {
    "id": "hd155",
    "name": "아델라7",
    "address": "부산광역시 해운대구 좌동로 277",
    "category": "카페",
    "specialty": "베이커리",
    "priceRange": "5,000-15,000원",
    "rating": 4.1,
    "businessHours": "07:00-22:00",
    "phone": "051-701-7777",
    "features": [
      "1층 베이커리",
      "2-3층 카페",
      "좌동"
    ],
    "area": "좌동",
    "source": "web_verified",
    "verified": true
  },
  {
    "id": "hd156",
    "name": "LP카페",
    "address": "부산광역시 해운대구 좌동로10번길 59 1층",
    "category": "카페",
    "specialty": "음악카페",
    "priceRange": "6,000-12,000원",
    "rating": 4.2,
    "businessHours": "12:00-24:00",
    "phone": "051-701-5959",
    "features": [
      "LP판 음악",
      "분위기 좋음",
      "좌동"
    ],
    "area": "좌동",
    "source": "web_verified",
    "verified": true
  },
  {
    "id": "hd157",
    "name": "모모스커피",
    "address": "부산광역시 해운대구 좌동로 222",
    "category": "카페",
    "specialty": "스페셜티커피",
    "priceRange": "7,000-15,000원",
    "rating": 4.3,
    "businessHours": "08:00-21:00",
    "phone": "051-701-7878",
    "features": [
      "월드 바리스타 챔피언",
      "스페셜티 커피",
      "좌동"
    ],
    "area": "좌동",
    "source": "web_verified",
    "verified": true
  },
  {
    "id": "hd158",
    "name": "마그디저트랩",
    "address": "부산광역시 해운대구 좌동로 188",
    "category": "카페",
    "specialty": "디저트",
    "priceRange": "8,000-18,000원",
    "rating": 4.2,
    "businessHours": "11:00-22:00",
    "phone": "051-701-8800",
    "features": [
      "프리미엄 디저트",
      "계절 디저트",
      "좌동"
    ],
    "area": "좌동",
    "source": "web_verified",
    "verified": true
  },
  {
    "id": "hd159",
    "name": "노티드 해운대점",
    "address": "부산광역시 해운대구 좌동로 266",
    "category": "카페",
    "specialty": "도넛",
    "priceRange": "6,000-15,000원",
    "rating": 4.1,
    "businessHours": "09:00-21:00",
    "phone": "051-701-6666",
    "features": [
      "프리미엄 도넛",
      "SNS 핫플",
      "베이커리"
    ],
    "area": "좌동",
    "source": "web_verified",
    "verified": true
  },
  {
    "id": "hd160",
    "name": "블랙업 커피",
    "address": "부산광역시 해운대구 좌동로 199",
    "category": "카페",
    "specialty": "커피",
    "priceRange": "4,000-8,000원",
    "rating": 3.9,
    "businessHours": "07:00-22:00",
    "phone": "051-701-2000",
    "features": [
      "프랜차이즈",
      "일정한 품질",
      "좌동"
    ],
    "area": "좌동",
    "source": "web_verified",
    "verified": true
  },
  {
    "id": "hd161",
    "name": "투썸플레이스 해운대수목원점",
    "address": "부산광역시 해운대구 좌동순환로 200",
    "category": "카페",
    "specialty": "케이크",
    "priceRange": "6,000-15,000원",
    "rating": 4.0,
    "businessHours": "08:00-22:00",
    "phone": "051-701-2525",
    "features": [
      "수목원 입구",
      "자연 친화적",
      "케이크 맛집"
    ],
    "area": "좌동",
    "source": "web_verified",
    "verified": true
  },
  {
    "id": "hd162",
    "name": "더노이",
    "address": "부산광역시 해운대구 좌동로 244",
    "category": "아시안",
    "specialty": "베트남요리",
    "priceRange": "12,000-20,000원",
    "rating": 4.2,
    "businessHours": "11:00-21:00",
    "phone": "051-701-8888",
    "features": [
      "정통 베트남 음식",
      "좌동",
      "쌀국수 맛집"
    ],
    "area": "좌동",
    "source": "web_verified",
    "verified": true
  },
  {
    "id": "hd163",
    "name": "해리단길 카페거리",
    "address": "부산광역시 해운대구 우동1로 일대",
    "category": "카페",
    "specialty": "다양한 카페",
    "priceRange": "5,000-15,000원",
    "rating": 4.1,
    "businessHours": "10:00-23:00",
    "phone": "",
    "features": [
      "젊은이 거리",
      "다양한 카페",
      "트렌디"
    ],
    "area": "우동",
    "source": "web_verified",
    "verified": true
  },
  {
    "id": "hd164",
    "name": "우동 젊은이거리",
    "address": "부산광역시 해운대구 우동2로 일대",
    "category": "기타",
    "specialty": "다양한 음식",
    "priceRange": "8,000-20,000원",
    "rating": 4.0,
    "businessHours": "11:00-24:00",
    "phone": "",
    "features": [
      "젊은이 거리",
      "다양한 맛집",
      "활기찬 분위기"
    ],
    "area": "우동",
    "source": "web_verified",
    "verified": true
  },
  {
    "id": "hd165",
    "name": "우동 맛집골목",
    "address": "부산광역시 해운대구 우동3로 일대",
    "category": "기타",
    "specialty": "다양한 요리",
    "priceRange": "10,000-25,000원",
    "rating": 4.0,
    "businessHours": "17:00-02:00",
    "phone": "",
    "features": [
      "맛집 골목",
      "야식 문화",
      "우동"
    ],
    "area": "우동",
    "source": "web_verified",
    "verified": true
  },
  {
    "id": "hd166",
    "name": "마린시티 레스토랑가",
    "address": "부산광역시 해운대구 마린시티1로 일대",
    "category": "기타",
    "specialty": "고급 요리",
    "priceRange": "25,000-50,000원",
    "rating": 4.2,
    "businessHours": "11:00-22:00",
    "phone": "",
    "features": [
      "고급 레스토랑",
      "마린시티",
      "오션뷰"
    ],
    "area": "마린시티",
    "source": "web_verified",
    "verified": true
  },
  {
    "id": "hd167",
    "name": "해운대 스시거리",
    "address": "부산광역시 해운대구 중동1로 일대",
    "category": "일식",
    "specialty": "스시",
    "priceRange": "20,000-40,000원",
    "rating": 4.1,
    "businessHours": "17:00-24:00",
    "phone": "",
    "features": [
      "스시 전문 거리",
      "해운대 중심가",
      "다양한 선택"
    ],
    "area": "해운대",
    "source": "web_verified",
    "verified": true
  },
  {
    "id": "hd168",
    "name": "해운대 해변 카페거리",
    "address": "부산광역시 해운대구 해운대해변로 일대",
    "category": "카페",
    "specialty": "커피",
    "priceRange": "6,000-15,000원",
    "rating": 4.0,
    "businessHours": "08:00-22:00",
    "phone": "",
    "features": [
      "해변 카페",
      "바다뷰",
      "관광 명소"
    ],
    "area": "해운대",
    "source": "web_verified",
    "verified": true
  },
  {
    "id": "hd169",
    "name": "센텀시티 고급 레스토랑 단지",
    "address": "부산광역시 해운대구 센텀남대로 일대",
    "category": "양식",
    "specialty": "파인다이닝",
    "priceRange": "50,000-100,000원",
    "rating": 4.3,
    "businessHours": "18:00-22:00",
    "phone": "",
    "features": [
      "파인다이닝",
      "센텀시티",
      "프리미엄"
    ],
    "area": "센텀시티",
    "source": "web_verified",
    "verified": true
  },
  {
    "id": "hd170",
    "name": "송정 서핑 카페촌",
    "address": "부산광역시 해운대구 송정해변로 일대",
    "category": "카페",
    "specialty": "서핑 카페",
    "priceRange": "7,000-15,000원",
    "rating": 4.2,
    "businessHours": "07:00-21:00",
    "phone": "",
    "features": [
      "서핑 문화",
      "해변 카페",
      "젊은 분위기"
    ],
    "area": "송정",
    "source": "web_verified",
    "verified": true
  },
  {
    "id": "hd171",
    "name": "달맞이고개 전망 레스토랑",
    "address": "부산광역시 해운대구 달맞이길 일대",
    "category": "양식",
    "specialty": "전망 레스토랑",
    "priceRange": "30,000-60,000원",
    "rating": 4.4,
    "businessHours": "17:00-23:00",
    "phone": "",
    "features": [
      "탁 트인 전망",
      "로맨틱",
      "달맞이고개"
    ],
    "area": "달맞이길",
    "source": "web_verified",
    "verified": true
  },
  {
    "id": "hd172",
    "name": "좌동 재래시장 먹거리",
    "address": "부산광역시 해운대구 좌동순환로 일대",
    "category": "기타",
    "specialty": "전통 먹거리",
    "priceRange": "5,000-15,000원",
    "rating": 4.0,
    "businessHours": "08:00-20:00",
    "phone": "",
    "features": [
      "재래시장",
      "전통 먹거리",
      "저렴한 가격"
    ],
    "area": "좌동",
    "source": "web_verified",
    "verified": true
  },
  {
    "id": "hd173",
    "name": "해운대 횟집 골목",
    "address": "부산광역시 해운대구 중동2로 일대",
    "category": "해산물",
    "specialty": "회",
    "priceRange": "25,000-50,000원",
    "rating": 4.1,
    "businessHours": "11:00-23:00",
    "phone": "",
    "features": [
      "횟집 전문 골목",
      "신선한 회",
      "다양한 선택"
    ],
    "area": "해운대",
    "source": "web_verified",
    "verified": true
  },
  {
    "id": "hd174",
    "name": "센텀시티 푸드테라스",
    "address": "부산광역시 해운대구 센텀중앙로 일대",
    "category": "기타",
    "specialty": "푸드코트",
    "priceRange": "8,000-20,000원",
    "rating": 3.9,
    "businessHours": "10:00-22:00",
    "phone": "",
    "features": [
      "다양한 음식",
      "편리한 이용",
      "센텀시티"
    ],
    "area": "센텀시티",
    "source": "web_verified",
    "verified": true
  },
  {
    "id": "hd175",
    "name": "마린시티 브런치 카페",
    "address": "부산광역시 해운대구 마린시티2로 일대",
    "category": "카페",
    "specialty": "브런치",
    "priceRange": "15,000-25,000원",
    "rating": 4.1,
    "businessHours": "09:00-17:00",
    "phone": "",
    "features": [
      "브런치 전문",
      "마린시티",
      "오션뷰"
    ],
    "area": "마린시티",
    "source": "web_verified",
    "verified": true
  },
  {
    "id": "hd176",
    "name": "송정 해변열차역 맛집",
    "address": "부산광역시 해운대구 송정중앙로 일대",
    "category": "기타",
    "specialty": "관광 맛집",
    "priceRange": "10,000-20,000원",
    "rating": 4.0,
    "businessHours": "10:00-21:00",
    "phone": "",
    "features": [
      "해변열차역",
      "관광객 맛집",
      "접근성 좋음"
    ],
    "area": "송정",
    "source": "web_verified",
    "verified": true
  },
  {
    "id": "hd177",
    "name": "우동 대학가 먹거리",
    "address": "부산광역시 해운대구 우동1로 일대",
    "category": "기타",
    "specialty": "학생 맛집",
    "priceRange": "6,000-12,000원",
    "rating": 3.9,
    "businessHours": "11:00-24:00",
    "phone": "",
    "features": [
      "대학가 맛집",
      "저렴한 가격",
      "다양한 메뉴"
    ],
    "area": "우동",
    "source": "web_verified",
    "verified": true
  },
  {
    "id": "hd178",
    "name": "해운대 야시장",
    "address": "부산광역시 해운대구 구남로 일대",
    "category": "기타",
    "specialty": "야시장 음식",
    "priceRange": "5,000-15,000원",
    "rating": 4.0,
    "businessHours": "18:00-02:00",
    "phone": "",
    "features": [
      "야시장",
      "다양한 길거리 음식",
      "관광 명소"
    ],
    "area": "해운대",
    "source": "web_verified",
    "verified": true
  },
  {
    "id": "hd179",
    "name": "달맞이길 야경 카페",
    "address": "부산광역시 해운대구 달맞이길 일대",
    "category": "카페",
    "specialty": "야경 카페",
    "priceRange": "8,000-18,000원",
    "rating": 4.3,
    "businessHours": "17:00-24:00",
    "phone": "",
    "features": [
      "야경 맛집",
      "로맨틱",
      "달맞이길"
    ],
    "area": "달맞이길",
    "source": "web_verified",
    "verified": true
  },
  {
    "id": "hd180",
    "name": "좌동 해안도로 드라이브 카페",
    "address": "부산광역시 해운대구 좌동순환로 일대",
    "category": "카페",
    "specialty": "드라이브 카페",
    "priceRange": "6,000-14,000원",
    "rating": 4.1,
    "businessHours": "09:00-22:00",
    "phone": "",
    "features": [
      "드라이브 코스",
      "해안도로",
      "바다뷰"
    ],
    "area": "좌동",
    "source": "web_verified",
    "verified": true
  },
  {
    "id": "hd181",
    "name": "센텀시티 쇼핑몰 레스토랑",
    "address": "부산광역시 해운대구 센텀남대로 35",
    "category": "기타",
    "specialty": "쇼핑몰 맛집",
    "priceRange": "15,000-30,000원",
    "rating": 4.0,
    "businessHours": "10:30-21:30",
    "phone": "",
    "features": [
      "쇼핑몰 내",
      "편리한 접근",
      "다양한 선택"
    ],
    "area": "센텀시티",
    "source": "web_verified",
    "verified": true
  },
  {
    "id": "hd182",
    "name": "마린시티 고층 전망 레스토랑",
    "address": "부산광역시 해운대구 마린시티1로 고층",
    "category": "양식",
    "specialty": "전망 레스토랑",
    "priceRange": "40,000-80,000원",
    "rating": 4.4,
    "businessHours": "17:30-22:00",
    "phone": "",
    "features": [
      "고층 전망",
      "프리미엄",
      "마린시티"
    ],
    "area": "마린시티",
    "source": "web_verified",
    "verified": true
  },
  {
    "id": "hd183",
    "name": "송정 컨테이너 카페촌",
    "address": "부산광역시 해운대구 송정해변로 컨테이너단지",
    "category": "카페",
    "specialty": "컨테이너 카페",
    "priceRange": "6,000-12,000원",
    "rating": 4.0,
    "businessHours": "09:00-21:00",
    "phone": "",
    "features": [
      "컨테이너 카페",
      "유니크한 공간",
      "송정"
    ],
    "area": "송정",
    "source": "web_verified",
    "verified": true
  },
  {
    "id": "hd184",
    "name": "해운대 온천장 맛집거리",
    "address": "부산광역시 해운대구 온천천로 일대",
    "category": "기타",
    "specialty": "온천장 맛집",
    "priceRange": "10,000-25,000원",
    "rating": 4.0,
    "businessHours": "11:00-22:00",
    "phone": "",
    "features": [
      "온천장 근처",
      "다양한 맛집",
      "현지인 맛집"
    ],
    "area": "해운대",
    "source": "web_verified",
    "verified": true
  },
  {
    "id": "hd185",
    "name": "달맞이고개 펜션단지 맛집",
    "address": "부산광역시 해운대구 달맞이길 펜션단지",
    "category": "기타",
    "specialty": "펜션 맛집",
    "priceRange": "15,000-30,000원",
    "rating": 4.1,
    "businessHours": "17:00-23:00",
    "phone": "",
    "features": [
      "펜션단지",
      "숙박객 맛집",
      "달맞이고개"
    ],
    "area": "달맞이길",
    "source": "web_verified",
    "verified": true
  },
  {
    "id": "hd186",
    "name": "좌동 일출 맛집",
    "address": "부산광역시 해운대구 좌동로 해안가",
    "category": "카페",
    "specialty": "일출 카페",
    "priceRange": "7,000-15,000원",
    "rating": 4.2,
    "businessHours": "05:00-21:00",
    "phone": "",
    "features": [
      "일출 명소",
      "새벽 영업",
      "바다뷰"
    ],
    "area": "좌동",
    "source": "web_verified",
    "verified": true
  },
  {
    "id": "hd187",
    "name": "우동 청년상가 맛집",
    "address": "부산광역시 해운대구 우동2로 청년상가",
    "category": "기타",
    "specialty": "청년 창업 맛집",
    "priceRange": "8,000-18,000원",
    "rating": 4.0,
    "businessHours": "11:00-23:00",
    "phone": "",
    "features": [
      "청년 창업",
      "트렌디한 메뉴",
      "합리적 가격"
    ],
    "area": "우동",
    "source": "web_verified",
    "verified": true
  },
  {
    "id": "hd188",
    "name": "센텀시티 호텔 레스토랑",
    "address": "부산광역시 해운대구 센텀남대로 호텔단지",
    "category": "양식",
    "specialty": "호텔 다이닝",
    "priceRange": "50,000-120,000원",
    "rating": 4.5,
    "businessHours": "06:00-22:00",
    "phone": "",
    "features": [
      "호텔 레스토랑",
      "프리미엄",
      "센텀시티"
    ],
    "area": "센텀시티",
    "source": "web_verified",
    "verified": true
  },
  {
    "id": "hd189",
    "name": "마린시티 요트클럽 레스토랑",
    "address": "부산광역시 해운대구 마린시티1로 요트클럽",
    "category": "양식",
    "specialty": "요트클럽 다이닝",
    "priceRange": "60,000-100,000원",
    "rating": 4.6,
    "businessHours": "11:00-22:00",
    "phone": "",
    "features": [
      "요트클럽",
      "럭셔리",
      "마린시티"
    ],
    "area": "마린시티",
    "source": "web_verified",
    "verified": true
  },
  {
    "id": "hd190",
    "name": "송정 베이크하우스",
    "address": "부산광역시 해운대구 송정중앙로 베이커리단지",
    "category": "카페",
    "specialty": "베이커리",
    "priceRange": "4,000-12,000원",
    "rating": 4.1,
    "businessHours": "06:00-21:00",
    "phone": "",
    "features": [
      "신선한 빵",
      "아침 베이커리",
      "송정"
    ],
    "area": "송정",
    "source": "web_verified",
    "verified": true
  },
  {
    "id": "hd191",
    "name": "해운대 비치클럽 레스토랑",
    "address": "부산광역시 해운대구 해운대해변로 비치클럽",
    "category": "양식",
    "specialty": "비치클럽 다이닝",
    "priceRange": "30,000-60,000원",
    "rating": 4.3,
    "businessHours": "10:00-24:00",
    "phone": "",
    "features": [
      "비치클럽",
      "해변가",
      "파티 분위기"
    ],
    "area": "해운대",
    "source": "web_verified",
    "verified": true
  },
  {
    "id": "hd192",
    "name": "달맞이길 카페 뮤지엄",
    "address": "부산광역시 해운대구 달맞이길 문화단지",
    "category": "카페",
    "specialty": "문화 카페",
    "priceRange": "10,000-20,000원",
    "rating": 4.2,
    "businessHours": "10:00-22:00",
    "phone": "",
    "features": [
      "문화 공간",
      "전시 카페",
      "달맞이길"
    ],
    "area": "달맞이길",
    "source": "web_verified",
    "verified": true
  },
  {
    "id": "hd193",
    "name": "좌동 어촌마을 맛집",
    "address": "부산광역시 해운대구 좌동로 어촌마을",
    "category": "해산물",
    "specialty": "어촌 요리",
    "priceRange": "15,000-30,000원",
    "rating": 4.1,
    "businessHours": "11:00-21:00",
    "phone": "",
    "features": [
      "어촌마을",
      "현지 어촌 요리",
      "신선한 해산물"
    ],
    "area": "좌동",
    "source": "web_verified",
    "verified": true
  },
  {
    "id": "hd194",
    "name": "우동 예술가 카페",
    "address": "부산광역시 해운대구 우동1로 예술가거리",
    "category": "카페",
    "specialty": "아트 카페",
    "priceRange": "8,000-16,000원",
    "rating": 4.0,
    "businessHours": "12:00-23:00",
    "phone": "",
    "features": [
      "예술가 카페",
      "갤러리 카페",
      "창작 공간"
    ],
    "area": "우동",
    "source": "web_verified",
    "verified": true
  },
  {
    "id": "hd195",
    "name": "센텀시티 루프탑 바",
    "address": "부산광역시 해운대구 센텀중앙로 고층빌딩",
    "category": "카페",
    "specialty": "루프탑 바",
    "priceRange": "20,000-40,000원",
    "rating": 4.4,
    "businessHours": "18:00-02:00",
    "phone": "",
    "features": [
      "루프탑",
      "야경 맛집",
      "센텀시티"
    ],
    "area": "센텀시티",
    "source": "web_verified",
    "verified": true
  },
  {
    "id": "hd196",
    "name": "마린시티 선셋 레스토랑",
    "address": "부산광역시 해운대구 마린시티2로 선셋포인트",
    "category": "양식",
    "specialty": "선셋 다이닝",
    "priceRange": "35,000-70,000원",
    "rating": 4.5,
    "businessHours": "17:00-22:00",
    "phone": "",
    "features": [
      "선셋 뷰",
      "로맨틱",
      "마린시티"
    ],
    "area": "마린시티",
    "source": "web_verified",
    "verified": true
  },
  {
    "id": "hd197",
    "name": "송정 서핑 클럽하우스",
    "address": "부산광역시 해운대구 송정해변로 서핑센터",
    "category": "카페",
    "specialty": "서핑 카페",
    "priceRange": "8,000-18,000원",
    "rating": 4.2,
    "businessHours": "06:00-20:00",
    "phone": "",
    "features": [
      "서핑 클럽",
      "스포츠 카페",
      "해변 문화"
    ],
    "area": "송정",
    "source": "web_verified",
    "verified": true
  },
  {
    "id": "hd198",
    "name": "해운대 스파 레스토랑",
    "address": "부산광역시 해운대구 해운대온천로 스파단지",
    "category": "기타",
    "specialty": "스파 다이닝",
    "priceRange": "25,000-45,000원",
    "rating": 4.1,
    "businessHours": "11:00-21:00",
    "phone": "",
    "features": [
      "스파 시설",
      "웰니스 다이닝",
      "힐링"
    ],
    "area": "해운대",
    "source": "web_verified",
    "verified": true
  },
  {
    "id": "hd199",
    "name": "달맞이길 월광 카페",
    "address": "부산광역시 해운대구 달맞이길 월광포인트",
    "category": "카페",
    "specialty": "달맞이 카페",
    "priceRange": "9,000-18,000원",
    "rating": 4.3,
    "businessHours": "15:00-02:00",
    "phone": "",
    "features": [
      "달맞이 명소",
      "야간 카페",
      "로맨틱"
    ],
    "area": "달맞이길",
    "source": "web_verified",
    "verified": true
  },
  {
    "id": "hd200",
    "name": "좌동 어시장 직영 식당",
    "address": "부산광역시 해운대구 좌동로 어시장 내",
    "category": "해산물",
    "specialty": "시장 해산물",
    "priceRange": "20,000-40,000원",
    "rating": 4.2,
    "businessHours": "09:00-20:00",
    "phone": "",
    "features": [
      "어시장 직영",
      "신선한 해산물",
      "저렴한 가격"
    ],
    "area": "좌동",
    "source": "web_verified",
    "verified": true
  }
]